{
    "img": "https://images.unsplash.com/photo-1516483638261-f4dbaf036963?w=1200",
    "itinerary": [
        { "day": 1, "name": "Chania Airport (Arrival)", "lat": 35.531, "lng": 24.149 },
        { "day": 1, "name": "Venetian Old Harbor", "lat": 35.517, "lng": 24.017 },
        { "day": 1, "name": "Chania Lighthouse Walk", "lat": 35.519, "lng": 24.016 },
        { "day": 2, "name": "Agia Triada Monastery", "lat": 35.560, "lng": 24.135 },
        { "day": "Beach", "name": "Seitan Limania", "lat": 35.551, "lng": 24.193 },
        { "day": 3, "name": "Kissamos Port (Balos Boat)", "lat": 35.512, "lng": 23.638 },
        { "day": "Beach", "name": "Balos Lagoon", "lat": 35.583, "lng": 23.593 },
        { "day": 3, "name": "Falassarna Sunset", "lat": 35.491, "lng": 23.581 },
        { "day": 4, "name": "Topolia Gorge Drive", "lat": 35.433, "lng": 23.684 },
        { "day": "Beach", "name": "Elafonisi Pink Sand", "lat": 35.271, "lng": 23.541 },
        { "day": 5, "name": "Ancient Aptera", "lat": 35.462, "lng": 24.141 },
        { "day": 5, "name": "Chania Airport (Departure)", "lat": 35.531, "lng": 24.149 }
    ],
    "guide": "<h3>🏖️ Elite Beaches: The Luminous West</h3><table class='beach-table'><thead><tr><th>Beach</th><th>Rating</th><th>Type</th><th>Best For</th></tr></thead><tbody><tr><td><strong>Balos Lagoon</strong></td><td>⭐⭐⭐⭐⭐</td><td>Turquoise/Sand</td><td>Wild Scenery</td></tr><tr><td><strong>Elafonisi</strong></td><td>⭐⭐⭐⭐⭐</td><td>Pink Sand</td><td>Photography/Wading</td></tr><tr><td><strong>Falassarna</strong></td><td>⭐⭐⭐⭐⭐</td><td>White Sand</td><td>Big Waves/Sunset</td></tr><tr><td><strong>Seitan Limania</strong></td><td>⭐⭐⭐⭐</td><td>Rock Canyon</td><td>Adventure/Hiking</td></tr></tbody></table><h3>📅 5-Day Luminous West Itinerary</h3><div class='itinerary-step'><strong>Day 1: Venetian Splendor (~15km).</strong> Pickup car and head to Chania Town. Walk the 14th-century harbor and enjoy dinner in the car-free Old Town. Overnight in Chania.</div><div class='itinerary-step'><strong>Day 2: The Akrotiri Peninsula (~40km).</strong> Visit the orange-hued Agia Triada Monastery, then hike down to the jagged zig-zag cove of Seitan Limania.</div><div class='itinerary-step'><strong>Day 3: The Wild Peninsulas (~100km).</strong> Drive to Kissamos for the ferry to Balos Lagoon. On the return, stop at Falassarna for the island's most famous sunset.</div><div class='itinerary-step'><strong>Day 4: The Pink Sand Journey (~150km).</strong> Take the scenic (and narrow) mountain route through Topolia Gorge to the exotic sands of Elafonisi. A long but essential driving day.</div><div class='itinerary-step'><strong>Day 5: Ancient Views & Exit (~35km).</strong> Explore the massive Roman cisterns and theater at Ancient Aptera overlooking Souda Bay before heading back to the airport.</div><div class='advice-box'><strong>💡 Pro Tip:</strong> To see Balos, taking the ferry from Kissamos is much safer for rental cars than the rough 4x4 track. Check ferry times the night before!</div><div class='advice-box' style='background:#fde8e8; border-color:#f8b4b4;'><strong>⚠️ Reality Check:</strong> The road to Elafonisi is winding and high-altitude. If you have vertigo, stick to the main national road via Kissamos instead of the mountain shortcut.</div>"
}
