{
    "img": "https://images.unsplash.com/photo-1590523277543-a94d2e4eb00b?w=1200",
    "itinerary": [
        { "day": 1, "name": "Corfu Airport (Arrival)", "lat": 39.602, "lng": 19.914 },
        { "day": 1, "name": "Corfu Old Town (Spianada)", "lat": 39.624, "lng": 19.921 },
        { "day": 1, "name": "Old Fortress (Palaio Frourio)", "lat": 39.623, "lng": 19.929 },
        { "day": 2, "name": "Achilleion Palace", "lat": 39.563, "lng": 19.904 },
        { "day": 2, "name": "Kanoni & Vlacherna Monastery", "lat": 39.589, "lng": 19.917 },
        { "day": 3, "name": "Paleokastritsa Monastery", "lat": 39.671, "lng": 19.702 },
        { "day": 3, "name": "Porto Timoni Viewpoint", "lat": 39.661, "lng": 19.658 },
        { "day": "Beach", "name": "Paleokastritsa Main Beach", "lat": 39.672, "lng": 19.705 },
        { "day": 4, "name": "Canal d'Amour (Sidari)", "lat": 39.797, "lng": 19.704 },
        { "day": 4, "name": "Kassiopi Harbor", "lat": 39.789, "lng": 19.921 },
        { "day": "Beach", "name": "Loggas Sunset Beach", "lat": 39.791, "lng": 19.673 },
        { "day": 5, "name": "Issos Beach Dunes", "lat": 39.434, "lng": 19.941 },
        { "day": 5, "name": "Corfu Airport (Departure)", "lat": 39.602, "lng": 19.914 }
    ],
    "guide": "<h3>🏖️ Best Beaches: Ionian Emeralds</h3><table class='beach-table'><thead><tr><th>Beach</th><th>Rating</th><th>Type</th><th>Highlights</th></tr></thead><tbody><tr><td><strong>Paleokastritsa</strong></td><td>⭐⭐⭐⭐⭐</td><td>Coves/Pebble</td><td>Grottoes & Caves</td></tr><tr><td><strong>Porto Timoni</strong></td><td>⭐⭐⭐⭐⭐</td><td>Double Bay</td><td>Iconic Wild View</td></tr><tr><td><strong>Issos Beach</strong></td><td>⭐⭐⭐⭐</td><td>Golden Sand</td><td>Sahara-like Dunes</td></tr><tr><td><strong>Canal d'Amour</strong></td><td>⭐⭐⭐⭐</td><td>Sandstone</td><td>Unique Rock Formations</td></tr></tbody></table><h3>📅 5-Day Venetian Odyssey Itinerary</h3><div class='itinerary-step'><strong>Day 1: The Venetian Capital (~5km).</strong> Pickup car and enter the UNESCO heart. Walk the Liston promenade and the narrow 'Kantounia' alleys. Overnight in Corfu Town.</div><div class='itinerary-step'><strong>Day 2: Imperial Landmarks (~25km).</strong> Visit Sisi’s Achilleion Palace and the iconic Vlacherna Monastery at Kanoni. Great for plane-spotting and history.</div><div class='itinerary-step'><strong>Day 3: The Dramatic West (~45km).</strong> Drive to Paleokastritsa. Hire a boat for the caves, then hike to the double-bay of Porto Timoni for the island's best photo op.</div><div class='itinerary-step'><strong>Day 4: The North Coast (~70km).</strong> Explore the unique sandstone formations of Sidari and the upscale fishing village of Kassiopi. Catch the sunset at Loggas.</div><div class='itinerary-step'><strong>Day 5: The Sandy South (~65km).</strong> Drive south to the cedar forest and massive sand dunes of Issos Beach for a final swim before your flight.</div><div class='advice-box'><strong>💡 Pro Tip:</strong> Corfu's roads are winding and narrow. While distances look short on the map, the lush vegetation and mountain bends mean driving takes longer than you expect!</div>"
}
