{
  "key": "kos",
  "name": "Kos",
  "subtitle": "Hippocrates's island — long sandy beaches, Roman ruins and bicycles everywhere",
  "intro": "Kos was the birthplace of Hippocrates, the father of medicine, and home to the extraordinary Asklepion medical sanctuary. Today it's the second most popular Dodecanese island after Rhodes — flat enough that locals and tourists get around by bicycle, with the longest continuous stretch of sandy beach in the Aegean. The Italian-era architecture (1912-1943) gives the main town a distinctive Mediterranean colonial feel.",

  "itinerary": {
    "title": "4-Day Kos Itinerary",
    "subtitle": "Kos Town and the Asklepion, the Italian-era harbour, the best beaches of the south coast, and the mountain village of Zia.",
    "days": [
      {
        "day": 1,
        "title": "Kos Town & the Asklepion",
        "color": "#1B4F8A",
        "km": 15,
        "drive_mins": 25,
        "overnight": "Kos Town",
        "stops": [
          { "name": "Kos Town", "lat": 36.8939, "lng": 27.2881, "type": "city", "time": "09:00", "wiki": "https://en.wikipedia.org/wiki/Kos_(city)", "desc": "The main town — a mix of Italian colonial architecture, Ottoman mosques and ancient Greek ruins. Rent a bicycle at the harbour — the town is perfectly flat and best explored on wheels." },
          { "name": "Hippocrates Plane Tree", "lat": 36.8947, "lng": 27.2889, "type": "nature", "time": "10:00", "wiki": null, "desc": "A 500-year-old plane tree in the harbour square, traditionally said to be where Hippocrates taught medicine 2400 years ago. The actual tree is younger but the site is authentic." },
          { "name": "Kos Castle (Neratzia)", "lat": 36.8944, "lng": 27.2922, "type": "castle", "time": "11:00", "wiki": "https://en.wikipedia.org/wiki/Neratzia_Castle", "desc": "15th-century Knights of St John fortress at the harbour entrance. Recently reopened after earthquake damage. Walk the walls for views over the harbour and Turkey opposite." },
          { "name": "Asklepion of Kos", "lat": 36.8794, "lng": 27.2594, "type": "museum", "time": "13:30", "wiki": "https://en.wikipedia.org/wiki/Asclepeion_of_Kos", "desc": "The most important ancient medical sanctuary in the Greek world — three terraces of temples and healing facilities where Hippocratic medicine was taught. Extraordinary views over the town and Turkey. 4km from the town, accessible by bicycle or mini-train." },
          { "name": "Lambi Beach", "lat": 36.9139, "lng": 27.2769, "type": "beach", "time": "16:30", "wiki": null, "desc": "The closest beach to Kos Town — long sandy stretch 2km north of the town. Calm, shallow water and all facilities." }
        ]
      },
      {
        "day": 2,
        "title": "South Coast Beaches",
        "color": "#C0522A",
        "km": 40,
        "drive_mins": 50,
        "overnight": "Kos Town",
        "stops": [
          { "name": "Paradise Beach", "lat": 36.7567, "lng": 27.0967, "type": "beach", "time": "09:30", "wiki": null, "desc": "The most famous beach on Kos — fine sand, crystal clear water with natural volcanic gas bubbles in the seabed. Popular but large enough to absorb the crowds." },
          { "name": "Agios Stefanos & Kastri Islet", "lat": 36.7783, "lng": 27.0817, "type": "church", "time": "12:00", "wiki": null, "desc": "Early Christian basilica ruins on the beach, with the tiny islet of Kastri just offshore — you can swim across to visit the small chapel at the top. One of the most photogenic spots on the island." },
          { "name": "Lunch — Kefalos Village", "lat": 36.7528, "lng": 27.0817, "type": "village", "time": "13:30", "wiki": null, "desc": "Traditional hilltop village at the southwest tip — the authentic alternative to the resorts on the coast below. Excellent small tavernas with views over the bay." },
          { "name": "Camel Beach", "lat": 36.7644, "lng": 27.0950, "type": "beach", "time": "15:30", "wiki": null, "desc": "Sandy cove with distinctive rock formations — much quieter than Paradise Beach, with water of the same quality. Reached by a short path from the road." }
        ]
      },
      {
        "day": 3,
        "title": "Zia & the Mountain Interior",
        "color": "#5A7A3A",
        "km": 30,
        "drive_mins": 45,
        "overnight": "Kos Town",
        "stops": [
          { "name": "Zia Village", "lat": 36.8489, "lng": 27.2128, "type": "village", "time": "10:00", "wiki": "https://en.wikipedia.org/wiki/Zia,_Kos", "desc": "Mountain village at 350m altitude — the best views on the island, with Turkey visible across the strait. The sunset here is one of the best in the Dodecanese. Traditional weavers still work in the village." },
          { "name": "Dikaios Mountain", "lat": 36.8400, "lng": 27.2267, "type": "nature", "time": "11:30", "wiki": null, "desc": "The highest peak on Kos (846m). Short hike from Zia for extraordinary views over the whole island, the Dodecanese, and the Turkish coast." },
          { "name": "Asfendiou Villages", "lat": 36.8617, "lng": 27.1950, "type": "village", "time": "13:30", "wiki": null, "desc": "Cluster of traditional villages on the slopes below Zia — Evangelistria, Lagoudi, Asomatos. Rarely visited by tourists. Lunch at one of the village tavernas." },
          { "name": "Tigaki Salt Pan & Beach", "lat": 36.8606, "lng": 27.1406, "type": "beach", "time": "16:00", "wiki": null, "desc": "Flamingo wetlands beside a long north-coast sandy beach. Birdwatching and swimming combined. Sunset is good here." }
        ]
      },
      {
        "day": 4,
        "title": "Nisyros Day Trip & Departure",
        "color": "#C4962A",
        "km": 10,
        "drive_mins": 15,
        "overnight": null,
        "stops": [
          { "name": "Kardamena Port", "lat": 36.7811, "lng": 27.1389, "type": "harbour", "time": "08:30", "wiki": null, "desc": "Depart by boat to Nisyros — the volcanic island 20km south. Day cruises give you 5 hours on Nisyros to visit the active volcano crater." },
          { "name": "Nisyros Volcano Crater", "lat": 36.5850, "lng": 27.1550, "type": "nature", "time": "10:30", "wiki": "https://en.wikipedia.org/wiki/Nisyros", "desc": "Walk down into the active volcanic crater — steam vents, yellow sulphur deposits and the smell of hot rock. One of the most unusual excursions in the Greek islands." },
          { "name": "Kos Airport/Port — Departure", "lat": 36.8939, "lng": 27.2881, "type": "harbour", "time": "18:00", "wiki": null, "desc": "Return to Kos for ferry or flight. Kos has an international airport with flights to most major European cities." }
        ]
      }
    ]
  },

  "beaches": [
    {
      "name": "Paradise Beach",
      "wiki": null,
      "rating": 5,
      "type": "Fine sand",
      "length": "700 m",
      "depth": "Shallow — gradual entry, natural volcanic gas bubbles in the sand",
      "facing": "South-facing — sheltered bay, warm water",
      "facilities": "Fully organised: sunbeds, water sports, beach bars, restaurants. Gas bubbles in the seabed are unique and harmless.",
      "desc": "The finest beach on Kos — fine golden sand and crystal clear turquoise water, with the unique feature of natural volcanic gas bubbling up through the seabed in parts. Popular but long enough to feel uncrowded. Arrive by 11am for the best sunbeds.",
      "commons": null,
      "lat": 36.7567, "lng": 27.0967
    },
    {
      "name": "Agios Stefanos Beach",
      "wiki": null,
      "rating": 5,
      "type": "Fine sand",
      "length": "300 m",
      "depth": "Shallow to medium",
      "facing": "South-facing — sheltered cove with Kastri islet offshore",
      "facilities": "Good: sunbeds, taverna, parking. Swim out to Kastri islet (200m) to visit the chapel.",
      "desc": "The most picturesque beach on Kos — early Christian basilica ruins directly on the sand, and the tiny islet of Kastri with a chapel just offshore. You can swim across to the islet. The combination of archaeology, swimming and setting is unmatched on the island.",
      "commons": null,
      "lat": 36.7783, "lng": 27.0817
    },
    {
      "name": "Tigaki Beach",
      "wiki": null,
      "rating": 4,
      "type": "Fine sand",
      "length": "10 km",
      "depth": "Very shallow — gradual, safe for children",
      "facing": "North-facing — occasional winds",
      "facilities": "Good: sunbeds, water sports, bicycle path all along. Flamingo wetland behind the beach.",
      "desc": "The longest beach on Kos — 10km of fine sand along the north coast. A cycle path runs the full length, making it the perfect place to combine cycling with beach-hopping. Flamingos visit the salt pan behind the beach in spring.",
      "commons": null,
      "lat": 36.8606, "lng": 27.1406
    }
  ]
}
