{
    "img": "https://images.unsplash.com/photo-1570535189332-902263b8296a?w=1200",
    "itinerary": [
        { "day": "Hub", "name": "Mytilene Airport", "lat": 39.056, "lng": 26.598 },
        { "day": "Hub", "name": "Mytilene Port", "lat": 39.106, "lng": 26.554 },
        { "day": "Beach", "name": "Vatera", "lat": 38.980, "lng": 26.241 },
        { "day": "Beach", "name": "Skala Eressou", "lat": 39.129, "lng": 25.932 },
        { "day": "Beach", "name": "Agios Isidoros", "lat": 38.975, "lng": 26.388 },
        { "day": "Beach", "name": "Tarti", "lat": 38.973, "lng": 26.505 },
        { "day": 1, "name": "Mytilene Center", "lat": 39.110, "lng": 26.550 },
        { "day": 2, "name": "Molyvos", "lat": 39.367, "lng": 26.174 },
        { "day": 3, "name": "Sigri", "lat": 39.205, "lng": 25.900 },
        { "day": 5, "name": "Plomari", "lat": 38.976, "lng": 26.366 }
    ],
    "guide": "<h3>🏖️ Beach Ratings</h3><div style='overflow-x:auto; margin-bottom:20px;'><table style='width:100%; border-collapse: collapse; font-size: 0.85rem;'><thead><tr style='background:#005BAE; color:white;'><th style='padding:8px;'>Beach</th><th style='padding:8px;'>Rating</th><th style='padding:8px;'>Type</th></tr></thead><tbody><tr><td>Vatera</td><td>⭐⭐⭐⭐⭐</td><td>Sand</td></tr><tr style='background:#f9f9f9;'><td>Eressos</td><td>⭐⭐⭐⭐⭐</td><td>Grey Sand</td></tr><tr><td>Agios Isidoros</td><td>⭐⭐⭐⭐⭐</td><td>Pebble</td></tr></tbody></table></div><h3>📅 5-Day Highlights</h3><div class='itinerary-step'><strong>Day 1-2:</strong> North Coast. <strong>Day 3-4:</strong> Stay in Eressos. <strong>Day 5:</strong> South Coast & Ouzo.</div>"
}
