{
    "img": "https://images.unsplash.com/photo-1570535189332-902263b8296a?w=1200",
    "itinerary": [
        { "day": "Beach", "name": "Vatera", "lat": 38.980, "lng": 26.241 },
        { "day": "Beach", "name": "Skala Eressos", "lat": 39.129, "lng": 25.932 },
        { "day": "Beach", "name": "Agios Isidoros", "lat": 38.975, "lng": 26.388 },
        { "day": "Beach", "name": "Tarti", "lat": 38.973, "lng": 26.505 },
        { "day": "Beach", "name": "Petra Beach", "lat": 39.330, "lng": 26.175 },
        { "day": "Beach", "name": "Anaxos", "lat": 39.324, "lng": 26.152 },
        { "day": "Beach", "name": "Molyvos Beach", "lat": 39.366, "lng": 26.176 },
        { "day": 1, "name": "Mytilene Arrival", "lat": 39.106, "lng": 26.554 },
        { "day": 2, "name": "Molyvos Castle", "lat": 39.367, "lng": 26.174 },
        { "day": 2, "name": "Eftalou Hot Springs", "lat": 39.382, "lng": 26.195 },
        { "day": 3, "name": "Kalloni Salt Flats", "lat": 39.207, "lng": 26.223 },
        { "day": 4, "name": "Plomari (Ouzo Capital)", "lat": 38.976, "lng": 26.366 }
    ],
    "guide": "<h3>🏖️ The Best Beaches of Lesvos: At a Glance</h3><div style='overflow-x:auto; margin-bottom: 30px;'><table style='width:100%; border-collapse: collapse; background: white; border-radius: 8px; overflow: hidden; font-size: 0.9rem;'><thead style='background: #005BAE; color: white;'><tr><th style='padding: 12px; text-align: left;'>Beach</th><th style='padding: 12px;'>Rating</th><th style='padding: 12px;'>Type</th><th style='padding: 12px;'>Depth</th><th style='padding: 12px;'>Facilities</th></tr></thead><tbody style='color: #444;'><tr style='border-bottom: 1px solid #eee;'><td style='padding: 12px; font-weight: bold;'>Vatera</td><td style='padding: 12px; color: #f1c40f;'>⭐⭐⭐⭐⭐</td><td style='padding: 12px;'>Sand / Pebble</td><td style='padding: 12px;'>Deep</td><td style='padding: 12px;'>Extensive</td></tr><tr style='border-bottom: 1px solid #eee; background: #f9f9f9;'><td style='padding: 12px; font-weight: bold;'>Skala Eressos</td><td style='padding: 12px; color: #f1c40f;'>⭐⭐⭐⭐⭐</td><td style='padding: 12px;'>Fine Grey Sand</td><td style='padding: 12px;'>Moderate</td><td style='padding: 12px;'>Bohemian</td></tr><tr style='border-bottom: 1px solid #eee;'><td style='padding: 12px; font-weight: bold;'>Agios Isidoros</td><td style='padding: 12px; color: #f1c40f;'>⭐⭐⭐⭐⭐</td><td style='padding: 12px;'>Polished Pebbles</td><td style='padding: 12px;'>Deep</td><td style='padding: 12px;'>Organized</td></tr><tr style='border-bottom: 1px solid #eee; background: #f9f9f9;'><td style='padding: 12px; font-weight: bold;'>Tarti</td><td style='padding: 12px; color: #f1c40f;'>⭐⭐⭐⭐⭐</td><td style='padding: 12px;'>Golden Sand</td><td style='padding: 12px;'>Moderate</td><td style='padding: 12px;'>Boutique</td></tr><tr style='border-bottom: 1px solid #eee;'><td style='padding: 12px; font-weight: bold;'>Petra</td><td style='padding: 12px; color: #f1c40f;'>⭐⭐⭐⭐</td><td style='padding: 12px;'>Sand</td><td style='padding: 12px;'>Moderate</td><td style='padding: 12px;'>Commercial</td></tr><tr style='border-bottom: 1px solid #eee; background: #f9f9f9;'><td style='padding: 12px; font-weight: bold;'>Anaxos</td><td style='padding: 12px; color: #f1c40f;'>⭐⭐⭐⭐</td><td style='padding: 12px;'>Sand</td><td style='padding: 12px;'>Shallow</td><td style='padding: 12px;'>Family</td></tr><tr style='border-bottom: 1px solid #eee;'><td style='padding: 12px; font-weight: bold;'>Molyvos</td><td style='padding: 12px; color: #f1c40f;'>⭐⭐⭐</td><td style='padding: 12px;'>Pebble / Sand</td><td style='padding: 12px;'>Deep</td><td style='padding: 12px;'>Village</td></tr></tbody></table></div><div class='guide-card'><h3>💡 Key facts (so you don’t mess this up)</h3><ul><li><strong>Car:</strong> Absolutely mandatory. Distances are huge.</li><li><strong>Strategy:</strong> Split your stay between the North (Molyvos) and the South (Plomari) to save 4 hours of driving.</li></ul></div><h3>📅 FULL 4-DAY DRIVING ITINERARY</h3><div class='itinerary-step'><strong>Day 1 — The Capital:</strong> Explore Mytilene's castle and harbor.</div><div class='itinerary-step'><strong>Day 2 — The North:</strong> Molyvos Castle and the therapeutic Eftalou Hot Springs.</div><div class='itinerary-step'><strong>Day 3 — The Wild West:</strong> Petrified Forest and the salt flats of Kalloni.</div><div class='itinerary-step'><strong>Day 4 — Ouzo Heritage:</strong> Plomari distillery tours and seaside dining.</div>"
}
